{
"type": "FeatureCollection",
"name": "personas",
"crs": { "type": "name", "properties": { "name": "urn:ogc:def:crs:OGC:1.3:CRS84" } },
"features": [
{ "type": "Feature", "properties": { "Name": "[NACIMIENTO]Nicolas", "description": "comentario de Nicolas Fernández Carrizo", "tessellate": -1, "extrude": 0 }, "geometry": { "type": "Point", "coordinates": [ -5.8486578, 43.369486849999987 ] } },
{ "type": "Feature", "properties": { "Name": "[NACIMIENTO]Manuel", "description": "comentario de Manuel Fernández Draeger", "tessellate": -1, "extrude": 0 }, "geometry": { "type": "Point", "coordinates": [ 8.68361415, 49.4057284 ] } },
{ "type": "Feature", "properties": { "Name": "[NACIMIENTO]Pilar", "description": "comentario de Pilar Carrizo Martinez", "tessellate": -1, "extrude": 0 }, "geometry": { "type": "Point", "coordinates": [ -5.9180204, 43.55741985 ] } },
{ "type": "Feature", "properties": { "Name": "[NACIMIENTO]Manuel", "description": "comentario de Manuel Fernández Delgado ", "tessellate": -1, "extrude": 0 }, "geometry": { "type": "Point", "coordinates": [ -5.5773913, 42.60360565 ] } },
{ "type": "Feature", "properties": { "Name": "[NACIMIENTO]Erika", "description": "comentario de Erika Draeger Moller", "tessellate": -1, "extrude": 0 }, "geometry": { "type": "Point", "coordinates": [ 11.54183575, 48.15491075 ] } },
{ "type": "Feature", "properties": { "Name": "[NACIMIENTO]Angel", "description": "comentario de Angel Carrizo Martinez", "tessellate": -1, "extrude": 0 }, "geometry": { "type": "Point", "coordinates": [ -5.9180204, 43.55741985 ] } },
{ "type": "Feature", "properties": { "Name": "[NACIMIENTO]Agustina", "description": "comentario de Agustina Martinez Martinez", "tessellate": -1, "extrude": 0 }, "geometry": { "type": "Point", "coordinates": [ -5.88322375, 42.52436705 ] } },
{ "type": "Feature", "properties": { "Name": "[FALLECIMIENTO]Manuel", "description": "comentario de Manuel Fernández Delgado ", "tessellate": -1, "extrude": 0 }, "geometry": { "type": "Point", "coordinates": [ -5.5773913, 42.60360565 ] } },
{ "type": "Feature", "properties": { "Name": "[FALLECIMIENTO]Erika", "description": "comentario de Erika Draeger Moller", "tessellate": -1, "extrude": 0 }, "geometry": { "type": "Point", "coordinates": [ 10.000654, 53.550341 ] } },
{ "type": "Feature", "properties": { "Name": "[FALLECIMIENTO]Angel", "description": "comentario de Angel Carrizo Martinez", "tessellate": -1, "extrude": 0 }, "geometry": { "type": "Point", "coordinates": [ -5.9180204, 43.55741985 ] } },
{ "type": "Feature", "properties": { "Name": "[FALLECIMIENTO]Agustina", "description": "comentario de Agustina Martinez Martinez", "tessellate": -1, "extrude": 0 }, "geometry": { "type": "Point", "coordinates": [ -5.88322375,42.52436705 ] } },
{ "type": "Feature", "properties": { "Name": "[NACIMIENTO]Vicente", "description": "comentario de Vicente Fernández Martinez", "tessellate": -1, "extrude": 0 }, "geometry": { "type": "Point", "coordinates": [ -5.5773913, 42.60360565 ] } },
{ "type": "Feature", "properties": { "Name": "[NACIMIENTO]Petronila", "description": "comentario de Petronila Delgado Moral", "tessellate": -1, "extrude": 0 }, "geometry": { "type": "Point", "coordinates": [ -5.5773913, 42.60360565 ] } },
{ "type": "Feature", "properties": { "Name": "[NACIMIENTO]Rudolf", "description": "comentario de Rudolf Draeger Murphy", "tessellate": -1, "extrude": 0 }, "geometry": { "type": "Point", "coordinates": [ 8.7362858, 53.1200314 ] } },
{ "type": "Feature", "properties": { "Name": "[NACIMIENTO]Ines", "description": "comentario de Ines Moller Moller", "tessellate": -1, "extrude": 0 }, "geometry": { "type": "Point", "coordinates": [ 6.8143502, 51.23845475 ] } },
{ "type": "Feature", "properties": { "Name": "[NACIMIENTO]Santiago", "description": "comentario de Santiago Carrizo Matilla", "tessellate": -1, "extrude": 0 }, "geometry": { "type": "Point", "coordinates": [ -5.5773913, 42.60360565 ] } },
{ "type": "Feature", "properties": { "Name": "[NACIMIENTO]Teresa", "description": "comentario de Teresa Matilla Capin", "tessellate": -1, "extrude": 0 }, "geometry": { "type": "Point", "coordinates": [ -3.67953665, 40.4379543 ] } },
{ "type": "Feature", "properties": { "Name": "[NACIMIENTO]Manuel", "description": "comentario de Manuel Martinez Botas", "tessellate": -1, "extrude": 0 }, "geometry": { "type": "Point", "coordinates": [ -0.8949809, 41.65169125 ] } },
{ "type": "Feature", "properties": { "Name": "[NACIMIENTO]Antonia", "description": "comentario de Antonia Martinez Sanchez", "tessellate": -1, "extrude": 0 }, "geometry": { "type": "Point", "coordinates": [ -3.67953665, 40.4379543 ] } },
{ "type": "Feature", "properties": { "Name": "[FALLECIMIENTO]Vicente", "description": "comentario de Vicente Fernández Martinez", "tessellate": -1, "extrude": 0 }, "geometry": { "type": "Point", "coordinates": [ -5.5773913, 42.60360565 ] } },
{ "type": "Feature", "properties": { "Name": "[FALLECIMIENTO]Petronila", "description": "comentario de Petronila Delgado Moral", "tessellate": -1, "extrude": 0 }, "geometry": { "type": "Point", "coordinates": [ -5.5773913, 42.60360565 ] } },
{ "type": "Feature", "properties": { "Name": "[FALLECIMIENTO]Rudolf", "description": "comentario de Rudolf Draeger Murphy", "tessellate": -1, "extrude": 0 }, "geometry": { "type": "Point", "coordinates": [ 10.000654, 53.550341 ] } },
{ "type": "Feature", "properties": { "Name": "[FALLECIMIENTO]Ines", "description": "comentario de Ines Moller Moller", "tessellate": -1, "extrude": 0 }, "geometry": { "type": "Point", "coordinates": [ 10.000654, 53.550341 ] } },
{ "type": "Feature", "properties": { "Name": "[FALLECIMIENTO]Santiago", "description": "comentario de Santiago Carrizo Matilla", "tessellate": -1, "extrude": 0 }, "geometry": { "type": "Point", "coordinates": [ -5.9180204, 43.55741985 ] } },
{ "type": "Feature", "properties": { "Name": "[FALLECIMIENTO]Teresa", "description": "comentario de Teresa Matilla Capin", "tessellate": -1, "extrude": 0 }, "geometry": { "type": "Point", "coordinates": [ -5.5773913, 42.60360565 ] } },
{ "type": "Feature", "properties": { "Name": "[FALLECIMIENTO]Manuel", "description": "comentario de Manuel Martinez Botas", "tessellate": -1, "extrude": 0 }, "geometry": { "type": "Point", "coordinates": [ -5.5773913, 42.60360565 ] } },
{ "type": "Feature", "properties": { "Name": "[FALLECIMIENTO]Antonia", "description": "comentario de Antonia Martinez Sanchez", "tessellate": -1, "extrude": 0 }, "geometry": { "type": "Point", "coordinates": [ -0.3615113, 39.40778525 ] } }
]
}
